[
  {
    "city": "Colombo", 
    "lat": "6.9167", 
    "lng": "79.8333", 
    "country": "Sri Lanka", 
    "iso2": "LK", 
    "admin_name": "Western", 
    "capital": "primary", 
    "population": "752993", 
    "population_proper": "752993"
  }, 
  {
    "city": "Moratuwa", 
    "lat": "6.7804", 
    "lng": "79.8800", 
    "country": "Sri Lanka", 
    "iso2": "LK", 
    "admin_name": "Western", 
    "capital": "", 
    "population": "200000", 
    "population_proper": "177190"
  }, 
  {
    "city": "Kandy", 
    "lat": "7.2970", 
    "lng": "80.6385", 
    "country": "Sri Lanka", 
    "iso2": "LK", 
    "admin_name": "Central", 
    "capital": "admin", 
    "population": "161000", 
    "population_proper": "161000"
  }, 
  {
    "city": "Negombo", 
    "lat": "7.2111", 
    "lng": "79.8386", 
    "country": "Sri Lanka", 
    "iso2": "LK", 
    "admin_name": "Western", 
    "capital": "", 
    "population": "142136", 
    "population_proper": "142136"
  }, 
  {
    "city": "Batticaloa", 
    "lat": "7.7170", 
    "lng": "81.7000", 
    "country": "Sri Lanka", 
    "iso2": "LK", 
    "admin_name": "Eastern", 
    "capital": "", 
    "population": "129222", 
    "population_proper": "86742"
  }, 
  {
    "city": "Sri Jayewardenepura Kotte", 
    "lat": "6.9000", 
    "lng": "79.9164", 
    "country": "Sri Lanka", 
    "iso2": "LK", 
    "admin_name": "Western", 
    "capital": "primary", 
    "population": "115826", 
    "population_proper": "115826"
  }, 
  {
    "city": "Kilinochchi", 
    "lat": "9.4004", 
    "lng": "80.3999", 
    "country": "Sri Lanka", 
    "iso2": "LK", 
    "admin_name": "Northern", 
    "capital": "", 
    "population": "103717", 
    "population_proper": "25000"
  }, 
  {
    "city": "Galle", 
    "lat": "6.0395", 
    "lng": "80.2194", 
    "country": "Sri Lanka", 
    "iso2": "LK", 
    "admin_name": "Southern", 
    "capital": "admin", 
    "population": "99478", 
    "population_proper": "93118"
  }, 
  {
    "city": "Trincomalee", 
    "lat": "8.5667", 
    "lng": "81.2333", 
    "country": "Sri Lanka", 
    "iso2": "LK", 
    "admin_name": "Eastern", 
    "capital": "admin", 
    "population": "99135", 
    "population_proper": "99135"
  }, 
  {
    "city": "Jaffna", 
    "lat": "9.6647", 
    "lng": "80.0167", 
    "country": "Sri Lanka", 
    "iso2": "LK", 
    "admin_name": "Northern", 
    "capital": "admin", 
    "population": "88138", 
    "population_proper": "88138"
  }, 
  {
    "city": "Matara", 
    "lat": "5.9500", 
    "lng": "80.5333", 
    "country": "Sri Lanka", 
    "iso2": "LK", 
    "admin_name": "Southern", 
    "capital": "", 
    "population": "68244", 
    "population_proper": "68244"
  }, 
  {
    "city": "Anuradhapura", 
    "lat": "8.3350", 
    "lng": "80.4108", 
    "country": "Sri Lanka", 
    "iso2": "LK", 
    "admin_name": "North Central", 
    "capital": "admin", 
    "population": "63208", 
    "population_proper": "63208"
  }, 
  {
    "city": "Ratnapura", 
    "lat": "6.6930", 
    "lng": "80.3860", 
    "country": "Sri Lanka", 
    "iso2": "LK", 
    "admin_name": "Sabaragamuwa", 
    "capital": "admin", 
    "population": "47832", 
    "population_proper": "47832"
  }, 
  {
    "city": "Puttalam", 
    "lat": "8.0330", 
    "lng": "79.8260", 
    "country": "Sri Lanka", 
    "iso2": "LK", 
    "admin_name": "North Western", 
    "capital": "", 
    "population": "45661", 
    "population_proper": "45661"
  }, 
  {
    "city": "Badulla", 
    "lat": "6.9847", 
    "lng": "81.0564", 
    "country": "Sri Lanka", 
    "iso2": "LK", 
    "admin_name": "Uva", 
    "capital": "admin", 
    "population": "42923", 
    "population_proper": "42923"
  }, 
  {
    "city": "Mullaittivu", 
    "lat": "9.2833", 
    "lng": "80.8000", 
    "country": "Sri Lanka", 
    "iso2": "LK", 
    "admin_name": "Northern", 
    "capital": "", 
    "population": "37339", 
    "population_proper": "37339"
  }, 
  {
    "city": "Matale", 
    "lat": "7.4667", 
    "lng": "80.6167", 
    "country": "Sri Lanka", 
    "iso2": "LK", 
    "admin_name": "Central", 
    "capital": "", 
    "population": "36451", 
    "population_proper": "36451"
  }, 
  {
    "city": "Mannar", 
    "lat": "8.9772", 
    "lng": "79.9138", 
    "country": "Sri Lanka", 
    "iso2": "LK", 
    "admin_name": "Northern", 
    "capital": "", 
    "population": "35000", 
    "population_proper": "35000"
  }, 
  {
    "city": "Kurunegala", 
    "lat": "7.4833", 
    "lng": "80.3667", 
    "country": "Sri Lanka", 
    "iso2": "LK", 
    "admin_name": "North Western", 
    "capital": "admin", 
    "population": "", 
    "population_proper": ""
  }
]